[
  {
    "title": "Family holiday to Nice",
    "startDate": "1991-03-27",
    "endDate": "1991-04-04",
    "group": "Family",
    "notes": "Drove to Rosslare, took a ferry to France, train to Paris for one night, then train to Nice for five nights, then returned in reverse.",
    "stops": [
      {
        "name": "Maghera",
        "lat": 54.844,
        "lng": -6.673,
        "type": "start"
      },
      {
        "name": "Rosslare, Ireland",
        "lat": 52.2500,
        "lng": -6.3400,
        "type": "transit"
      },
      {
        "name": "Nice, France",
        "lat": 43.7102,
        "lng": 7.2620,
        "type": "destination",
        "nights": 5
      },
      {
        "name": "Paris, France",
        "lat": 48.8566,
        "lng": 2.3522,
        "type": "stopover",
        "nights": 1
      },
      {
        "name": "Rosslare, Ireland",
        "lat": 52.2500,
        "lng": -6.3400,
        "type": "transit"
      }
    ]
  },
  {
    "title": "NYE in London",
    "startDate": "2001-12-30",
    "endDate": "2002-01-02",
    "group": "Audrey",
    "notes": "Stayed with Ada, not sure where, and met Toby and Jocelyn for a disappointing NYE evening dinner experience.",
    "stops": [
      {
        "name": "London, England",
        "lat": 51.5121,
        "lng": -0.0989,
        "type": "destination",
        "nights": 3
      }
    ]
  },
  {
    "title": "Summer holidays in Portstewart",
    "startDate": "1985",
    "endDate": "1996",
    "group": "Family",
    "notes": "Spent a week most summers in Seamus Mullan's house in Portstewart",
    "stops": [
      {
        "name": "Portstewart, Ireland",
        "lat": 55.18,
        "lng": -6.711,
        "type": "destination",
        "nights": 7
      }
    ]
  },
  {
    "title": "Cousins in Ballycastle",
    "startDate": "1987",
    "endDate": "1995",
    "group": "Family",
    "notes": "Went here every year for the Lammas Fair when young, plus a couple of holidays with the O'Neills",
    "stops": [
      {
        "name": "Ballycastle, Ireland",
        "lat": 55.2001,
        "lng": -6.2539,
        "type": "destination",
        "nights": 4
      }
    ]
  },
  {
    "title": "Cousins in Portarlington",
    "startDate": "1985",
    "endDate": "1993",
    "group": "Family",
    "notes": "Visited them fairly often, despite being so far away, sometimes I stayed down by myself for a few days",
    "stops": [
      {
        "name": "Portarlington, Ireland",
        "lat": 53.1479,
        "lng": -7.1288,
        "type": "destination",
        "nights": 4
      }
    ]
  },
  {
    "title": "Ireland's Grand Slam",
    "startDate": "2009-03-21",
    "endDate": "2009-03-21",
    "group": "Friends",
    "notes": "Day trip to Cardiff for the last game of the 6 nations with Kieran, Ryan, Audrey and Sarah.  Just watched the game in a pub",
    "stops": [
      {
        "name": "Cardiff, Wales",
        "lat": 51.4816,
        "lng": -3.1791,
        "type": "destination",
        "nights": 0
      }
    ]
  },
  {
    "title": "Cousins in Banagher",
    "startDate": "1986",
    "endDate": "1991",
    "group": "Family",
    "notes": "Visited them probably only a couple of times, don't think we ever stayed down, cycled there in 2023 from Clara",
    "stops": [
      {
        "name": "Banagher, Ireland",
        "lat": 53.1877,
        "lng": -7.9772,
        "type": "destination",
        "nights": 0
      }
    ]
  },
  {
    "title": "Gaeltacht",
    "startDate": "1991-07",
    "endDate": "1991-07",
    "group": "Solo",
    "notes": "Speant about 10 days or so at the Gaeltacht in Teelin, family came to visit on the Sunday",
    "stops": [
      {
        "name": "Teelin, Ireland",
        "lat": 54.6335,
        "lng": -8.6415,
        "type": "destination",
        "nights": 10
      }
    ]
  },
  {
    "title": "Skiing In Foppolo",
    "startDate": "1995-12-24",
    "endDate": "1996-01-01",
    "group": "Family",
    "notes": "Christmas present holiday, got stuck in Manchester on NYE.  First time flying for me.",
    "stops": [
      {
        "name": "Bergamo, Italy",
        "lat": 46.0448,
        "lng": 9.7579,
        "type": "destination",
        "nights": 7
      },
      {
        "name": "Manchester, England",
        "lat": 53.3557,
        "lng": -2.2772,
        "type": "stopover",
        "nights": 1
      }
    ]
  },
  {
    "title": "Dusseldorf and Neandertal",
    "startDate": "2009-12-12",
    "endDate": "2009-12-13",
    "group": "Friends",
    "notes": "Quick weekend trip to Neandertal with Audrey, Oli and Jess",
    "stops": [
      {
        "name": "Neandertal, Germany",
        "lat": 51.2261,
        "lng": 6.9510,
        "type": "destination",
        "nights": 0
      },
      {
        "name": "Düsseldorf, Germany",
        "lat": 51.2256,
        "lng": 6.7767,
        "type": "destination",
        "nights": 1
      }
    ]
  },
  {
    "title": "Epic trip from Europe to Vietnam and back",
    "startDate": "2010-03-23",
    "endDate": "2010-12-16",
    "group": "Audrey",
    "notes": "Travelled from Europe to Vietnam without flying, and then back again, this time with a couple of flights",
    "stops": [
      {
        "name": "London, England",
        "lat": 51.5561,
        "lng": 0.0000,
        "startDate": "2010-03-23",
        "endDate": "2010-03-23",
        "type": "start",
        "nights": 0,
        "notes": "Start of trip, packed the car and travelled via Holyhead back home."
      },
      {
        "name": "Swatragh, Ireland",
        "lat": 54.8764,
        "lng": -6.6633,
        "startDate": "2010-03-23",
        "endDate": "2010-03-29",
        "type": "stopover",
        "nights": 6,
        "notes": "Stayed with mum and dad for a few days while preparing the last things for the big trip..."
      },
      {
        "name": "Munich, Germany",
        "lat": 48.1341,
        "lng": 11.5761,
        "startDate": "2010-03-29",
        "endDate": "2010-04-03",
        "type": "destination",
        "nights": 5,
        "notes": "Flew to Munich, this would be the last time in the air for a long time..."
      },
      {
        "name": "Hallstatt, Austria",
        "lat": 47.5620,
        "lng": 13.6486,
        "startDate": "2010-04-03",
        "endDate": "2010-04-05",
        "type": "destination",
        "nights": 2,
        "notes": "Train to Hallstatt, lovely little village and we stayed in a delightful BnB"
      },
      {
        "name": "Bratislava, Slovakia",
        "lat": 48.1438,
        "lng": 17.1097,
        "startDate": "2010-04-05",
        "endDate": "2010-04-06",
        "type": "destination",
        "nights": 1,
        "notes": "Stayed in a rather strange artistic youth hostel (48.1598, 17.1072), and in some pub, and old woman flashed us"
      }
    ]
  },
  {
    "title": "Driving around Norway",
    "startDate": "2004-07-22",
    "endDate": "2004-07-29",
    "group": "Audrey",
    "notes": "Spent about a week driving around Norway with Bernard and Enoch.  This needs more details",
    "stops": [
      {
        "name": "Oslo, Norway",
        "lat": 59.9120,
        "lng": 10.7339,
        "type": "start",
        "nights": 2
      },
      {
        "name": "Bergen, Norway",
        "lat": 60.3904,
        "lng": 5.3147,
        "type": "destination",
        "nights": 2
      },
      {
        "name": "Ålesund, Norway",
        "lat": 62.4722,
        "lng": 6.1502,
        "type": "destination",
        "nights": 2
      }
    ]
  },
  {
    "title": "Visiting Audrey",
    "startDate": "2001-08-22",
    "endDate": "2004-09-12",
    "group": "Solo",
    "notes": "Went to Medieval times with Katie, Audrey, Niall and Paul",
    "stops": [
      {
        "name": "Toronto, Canada",
        "lat": 43.65,
        "lng": -79.39,
        "type": "destination",
        "nights": 2
      },
      {
        "name": "Waterloo, Canada",
        "lat": 43.4666,
        "lng": -80.5166,
        "type": "destination",
        "nights": 3
      }
    ]
  },
  {
    "title": "Skiing In Andorra",
    "startDate": "1999-01-04",
    "endDate": "1999-01-11",
    "group": "Family",
    "notes": "Christmas present holiday again, away with part of the Mullan Family.  Check actual dates",
    "stops": [
      {
        "name": "Andorra la Vella, Andorra",
        "lat": 42.5066,
        "lng": 1.5213,
        "type": "destination",
        "nights": 7
      }
    ]
  },
  {
    "title": "Day trip to Salzburg",
    "startDate": "2000-04-22",
    "endDate": "2000-04-22",
    "group": "Friends",
    "notes": "The lads were in Munich, so we jumped on a train to Austria with Aido, Audrey and Ada. Check actual date",
    "stops": [
      {
        "name": "Salzburg, Austria",
        "lat": 47.8007,
        "lng": 13.0454,
        "type": "destination",
        "nights": 0
      }
    ]
  },
  {
    "title": "Documenta",
    "startDate": "2002-09",
    "endDate": "2002-09",
    "group": "Audrey",
    "notes": "Went to Documenta in Kassel.  Paula once said she thinks her friend Lisa saw me there (or was it vice versa - how could that be possible as we never met each other).",
    "stops": [
      {
        "name": "Kassel, Germany",
        "lat": 51.3158, 
        "lng": 9.4979,
        "type": "destination",
        "nights": 2
      }
    ]
  },
  {
    "title": "Day trip to Cheimsee",
    "startDate": "2002-08",
    "endDate": "2002-08",
    "group": "Audrey",
    "notes": "Probably just a day trip to Chiemsee",
    "stops": [
      {
        "name": "Chiemsee, Germany",
        "lat": 47.8560,
        "lng": 12.3490,
        "type": "destination",
        "nights": 0
      }
    ]
  },
  {
    "title": "Nuremburg",
    "startDate": "2002-12",
    "endDate": "2002-12",
    "group": "Audrey",
    "notes": "Visiting the Chirstmas market, probably over a weekend",
    "stops": [
      {
        "name": "Nuremburg, Germany",
        "lat": 49.4538,
        "lng": 11.0775,
        "type": "destination",
        "nights": 2
      }
    ]
  },
  {
    "title": "Weekend in Hamburg",
    "startDate": "2002",
    "endDate": "2002",
    "group": "Audrey",
    "notes": "No idea when...",
    "stops": [
      {
        "name": "Hamburg, Germany",
        "lat": 53.55,
        "lng": 10,
        "type": "destination",
        "nights": 3
      }
    ]
  },
  {
    "title": "Florence and Siena",
    "startDate": "2003",
    "endDate": "2003",
    "group": "Audrey",
    "notes": "Really not sure of the dates...",
    "stops": [
      {
        "name": "Florence, Germany",
        "lat": 43.7713,
        "lng": 11.2541,
        "type": "destination",
        "nights": 3
      },
      {
        "name": "Siena, Germany",
        "lat": 43.3186,
        "lng": 11.3305,
        "type": "destination",
        "nights": 0
      }
    ]
  },
  {
    "title": "Europa Park and Heidelberg",
    "startDate": "2001-05",
    "endDate": "2001-05",
    "group": "Friends",
    "notes": "Hired a car and drove with Audrey, Claire and Aaron.  First time hiring a car and driving on the other side of the road",
    "stops": [
      {
        "name": "Heidelberg, Germany",
        "lat": 49.4166,
        "lng": 8.7166,
        "type": "destination",
        "nights": 2
      },
      {
        "name": "Rust, Germany",
        "lat": 48.2683,
        "lng": 7.7208,
        "type": "destination",
        "nights": 1
      }
    ]
  },
  {
    "title": "Weekend in Berlin",
    "startDate": "2001-04",
    "endDate": "2001-04",
    "group": "Audrey",
    "notes": "Weekend in Berling, took the ICE there and back",
    "stops": [
      {
        "name": "Berlin, Germany",
        "lat": 52.52,
        "lng": 13.405,
        "type": "destination",
        "nights": 3
      }
    ]
  },
  {
    "title": "Weekend in Milan",
    "startDate": "2001-03",
    "endDate": "2001-03",
    "group": "Audrey",
    "notes": "Night train to Milan back",
    "stops": [
      {
        "name": "Milan, Italy",
        "lat": 45.4669,
        "lng": 9.19,
        "type": "destination",
        "nights": 3
      }
    ]
  },
  {
    "title": "Bosnia with Aleks and Dan",
    "startDate": "2003-11",
    "endDate": "2003-11",
    "group": "Friends",
    "notes": "Got the bus from Munich and had a day trip to Banja Luka",
    "stops": [
      {
        "name": "Gradiska, Bosnia",
        "lat": 45.1465,
        "lng": 17.2558,
        "type": "destination",
        "nights": 3
      },
      {
        "name": "Banja Luka, Bosnia",
        "lat": 44.7717,
        "lng": 17.1914,
        "type": "destination",
        "nights": 0
      }
    ]
  },
  {
    "title": "Belgium With Mulholland",
    "startDate": "2000-06-18",
    "endDate": "2000-06-21",
    "group": "Friends",
    "notes": "Flew in and out of Dublin on my first cheap (Ryanair) flight. Check actual date",
    "stops": [
      {
        "name": "Leuven, Belgium",
        "lat": 50.8795,
        "lng": 4.7036,
        "type": "destination",
        "nights": 2
      },
      {
        "name": "Brussels, Belgium",
        "lat": 50.8466,
        "lng": 4.3585,
        "type": "destination",
        "nights": 1
      }
    ]
  },
  {
    "title": "Hong Kong and China",
    "startDate": "2004-02",
    "endDate": "2004-02",
    "group": "Audrey",
    "notes": "Spent LNY in HK with Audrey and her family, them travelled to Shanghai and Hangzhou",
    "stops": [
      {
        "name": "Hong Kong",
        "lat": 22.3258,
        "lng": 114.1578,
        "type": "destination",
        "nights": 6
      },
      {
        "name": "Shanghai, China",
        "lat": 31.2505,
        "lng": 121.4727,
        "type": "destination",
        "nights": 5
      },
      {
        "name": "Hangzhou, China",
        "lat": 30.2831,
        "lng": 120.1506,
        "type": "destination",
        "nights": 4
      }
    ]
  }
]
